[
  {
    "id": "fb-tokyo-tower",
    "name_src": "東京タワー",
    "name_sc": "东京塔",
    "name_tc": "東京塔",
    "name_jp": "東京タワー",
    "name_en": "Tokyo Tower",
    "emoji": "🗼",
    "lat": 35.658449,
    "lon": 139.745536,
    "category": "attraction"
  },
  {
    "id": "fb-tokyo-sensoji",
    "name_src": "浅草寺",
    "name_sc": "浅草寺",
    "name_tc": "淺草寺",
    "name_jp": "浅草寺",
    "name_en": "Sensō-ji Temple",
    "emoji": "🛕",
    "lat": 35.7134032,
    "lon": 139.7955265,
    "category": "attraction"
  },
  {
    "id": "fb-tokyo-skytree",
    "name_src": "東京スカイツリー",
    "name_sc": "东京晴空塔",
    "name_tc": "東京晴空塔",
    "name_jp": "東京スカイツリー",
    "name_en": "Tokyo Skytree",
    "emoji": "🗼",
    "lat": 35.7100543,
    "lon": 139.8107141,
    "category": "attraction"
  },
  {
    "id": "fb-tokyo-shibuya-crossing",
    "name_src": "渋谷スクランブル交差点",
    "name_sc": "涩谷路口",
    "name_tc": "澀谷路口",
    "name_jp": "渋谷スクランブル交差点",
    "name_en": "Shibuya scramble crossing",
    "emoji": "🚶",
    "lat": 35.6594951,
    "lon": 139.7004982,
    "category": "attraction"
  },
  {
    "id": "fb-tokyo-meiji-jingu",
    "name_src": "明治神宮",
    "name_sc": "明治神宫",
    "name_tc": "明治神宮",
    "name_jp": "明治神宮",
    "name_en": "Meiji Jingū",
    "emoji": "⛩️",
    "lat": 35.6748417,
    "lon": 139.6996266,
    "category": "attraction"
  },
  {
    "id": "fb-tokyo-imperial-palace",
    "name_src": "皇居",
    "name_sc": "皇居",
    "name_tc": "皇居",
    "name_jp": "皇居",
    "name_en": "Tokyo Imperial Palace",
    "emoji": "🏯",
    "lat": 35.6838467,
    "lon": 139.7506859,
    "category": "attraction"
  },
  {
    "id": "fb-tokyo-ueno-park",
    "name_src": "上野公園",
    "name_sc": "上野公园",
    "name_tc": "上野公園",
    "name_jp": "上野公園",
    "name_en": "Ueno Imperial Grant Park",
    "emoji": "🌸",
    "lat": 35.7140191,
    "lon": 139.7739291,
    "category": "attraction"
  },
  {
    "id": "fb-tokyo-ginza",
    "name_src": "銀座",
    "name_sc": "银座",
    "name_tc": "銀座",
    "name_jp": "銀座",
    "name_en": "Ginza",
    "emoji": "🛍️",
    "lat": 35.6720135,
    "lon": 139.7647202,
    "category": "attraction"
  },
  {
    "id": "fb-tokyo-akihabara",
    "name_src": "秋葉原",
    "name_sc": "秋叶原",
    "name_tc": "秋葉原",
    "name_jp": "秋葉原",
    "name_en": "Akihabara",
    "emoji": "🎮",
    "lat": 35.7018928,
    "lon": 139.7743684,
    "category": "attraction"
  },
  {
    "id": "fb-tokyo-shinjuku-gyoen",
    "name_src": "新宿御苑",
    "name_sc": "新宿御苑",
    "name_tc": "新宿御苑",
    "name_jp": "新宿御苑",
    "name_en": "Shinjuku Gyoen",
    "emoji": "🌳",
    "lat": 35.6850716,
    "lon": 139.7095466,
    "category": "attraction"
  },
  {
    "id": "fb-tokyo-tsukiji-outer",
    "name_src": "築地場外市場",
    "name_sc": "筑地市场",
    "name_tc": "築地市場",
    "name_jp": "築地場外市場",
    "name_en": "Tsukiji fish market",
    "emoji": "🍣",
    "lat": 35.6653884,
    "lon": 139.7704732,
    "category": "attraction"
  },
  {
    "id": "fb-tokyo-toyosu-market",
    "name_src": "豊洲市場",
    "name_sc": "丰洲市场",
    "name_tc": "豐洲市場",
    "name_jp": "豊洲市場",
    "name_en": "Toyosu market",
    "emoji": "🍣",
    "lat": 35.6421477,
    "lon": 139.7827183,
    "category": "attraction"
  },
  {
    "id": "fb-tokyo-odaiba",
    "name_src": "お台場",
    "name_sc": "御台场",
    "name_tc": "御臺場",
    "name_jp": "お台場",
    "name_en": "Odaiba",
    "emoji": "🌉",
    "lat": 35.6190032,
    "lon": 139.7793576,
    "category": "attraction"
  },
  {
    "id": "fb-tokyo-roppongi-hills",
    "name_src": "六本木ヒルズ",
    "name_sc": "六本木新城",
    "name_tc": "六本木新城",
    "name_jp": "六本木ヒルズ",
    "name_en": "Roppongi Hills",
    "emoji": "🏙️",
    "lat": 35.6601977,
    "lon": 139.7298284,
    "category": "attraction"
  },
  {
    "id": "fb-tokyo-haneda-airport",
    "name_src": "羽田空港",
    "name_sc": "东京国际机场",
    "name_tc": "東京國際機場",
    "name_jp": "羽田空港",
    "name_en": "Tokyo International Airport",
    "emoji": "✈️",
    "lat": 35.5456924,
    "lon": 139.7760994,
    "category": "attraction"
  },
  {
    "id": "fb-kyoto-kiyomizu",
    "name_src": "清水寺",
    "name_sc": "清水寺",
    "name_tc": "清水寺",
    "name_jp": "清水寺",
    "name_en": "Kiyomizu-dera Temple",
    "emoji": "⛩️",
    "lat": 34.994303,
    "lon": 135.7844389,
    "category": "attraction"
  },
  {
    "id": "fb-kyoto-kinkakuji",
    "name_src": "金閣寺",
    "name_sc": "鹿苑寺",
    "name_tc": "鹿苑寺",
    "name_jp": "金閣寺",
    "name_en": "Kinkaku-ji Temple",
    "emoji": "🏯",
    "lat": 35.0395293,
    "lon": 135.7295373,
    "category": "attraction"
  },
  {
    "id": "fb-kyoto-ginkakuji",
    "name_src": "銀閣寺",
    "name_sc": "慈照寺",
    "name_tc": "慈照寺",
    "name_jp": "銀閣寺",
    "name_en": "Ginkaku-ji Temple",
    "emoji": "🏯",
    "lat": 35.0268996,
    "lon": 135.7983714,
    "category": "attraction"
  },
  {
    "id": "fb-kyoto-fushimi-inari",
    "name_src": "伏見稲荷大社",
    "name_sc": "伏见稻荷大社",
    "name_tc": "伏見稻荷大社",
    "name_jp": "伏見稲荷大社",
    "name_en": "Fushimi Inari-taisha",
    "emoji": "⛩️",
    "lat": 34.9675192,
    "lon": 135.7797101,
    "category": "attraction"
  },
  {
    "id": "fb-kyoto-arashiyama-bamboo",
    "name_src": "嵐山竹林",
    "name_sc": "竹林 (京都)",
    "name_tc": "竹林 (京都)",
    "name_jp": "嵐山竹林",
    "name_en": "Bamboo Forest",
    "emoji": "🎋",
    "lat": 35.0167419,
    "lon": 135.6711482,
    "category": "attraction"
  },
  {
    "id": "fb-kyoto-togetsukyo",
    "name_src": "渡月橋",
    "name_sc": "渡月桥",
    "name_tc": "渡月橋",
    "name_jp": "渡月橋",
    "name_en": "Togetsu-kyō",
    "emoji": "🌉",
    "lat": 35.0128713,
    "lon": 135.6777623,
    "category": "attraction"
  },
  {
    "id": "fb-kyoto-nijo-castle",
    "name_src": "二条城",
    "name_sc": "二条城",
    "name_tc": "二條城",
    "name_jp": "二条城",
    "name_en": "Nijō Castle",
    "emoji": "🏯",
    "lat": 35.0140076,
    "lon": 135.7485369,
    "category": "attraction"
  },
  {
    "id": "fb-kyoto-ryoanji",
    "name_src": "龍安寺",
    "name_sc": "龙安寺",
    "name_tc": "龍安寺",
    "name_jp": "龍安寺",
    "name_en": "Ryōan-ji Temple",
    "emoji": "🪨",
    "lat": 35.033463,
    "lon": 135.7180884,
    "category": "attraction"
  },
  {
    "id": "fb-kyoto-byodoin",
    "name_src": "平等院",
    "name_sc": "平等院",
    "name_tc": "平等院",
    "name_jp": "平等院",
    "name_en": "Byōdō-in Temple",
    "emoji": "🛕",
    "lat": 34.8895001,
    "lon": 135.8074525,
    "category": "attraction"
  },
  {
    "id": "fb-kyoto-yasaka",
    "name_src": "八坂神社",
    "name_sc": "八坂神社",
    "name_tc": "八坂神社",
    "name_jp": "八坂神社",
    "name_en": "Yasaka Shrine",
    "emoji": "⛩️",
    "lat": 35.0036027,
    "lon": 135.7782611,
    "category": "attraction"
  },
  {
    "id": "fb-kyoto-gion",
    "name_src": "祇園",
    "name_sc": "祇园",
    "name_tc": "祇園",
    "name_jp": "祇園",
    "name_en": "Gion",
    "emoji": "🏮",
    "lat": 35.0046897,
    "lon": 135.778403,
    "category": "attraction"
  },
  {
    "id": "fb-osaka-castle",
    "name_src": "大阪城",
    "name_sc": "大阪城",
    "name_tc": "大阪城",
    "name_jp": "大阪城",
    "name_en": "Osaka Castle",
    "emoji": "🏯",
    "lat": 34.6873735,
    "lon": 135.5258555,
    "category": "attraction"
  },
  {
    "id": "fb-osaka-dotonbori",
    "name_src": "道頓堀",
    "name_sc": "道顿堀",
    "name_tc": "道頓堀",
    "name_jp": "道頓堀",
    "name_en": "Dōtonbori",
    "emoji": "🍜",
    "lat": 34.6690306,
    "lon": 135.5015715,
    "category": "attraction"
  },
  {
    "id": "fb-osaka-tsutenkaku",
    "name_src": "通天閣",
    "name_sc": "通天阁",
    "name_tc": "通天閣",
    "name_jp": "通天閣",
    "name_en": "Tsūtenkaku",
    "emoji": "🗼",
    "lat": 34.6525393,
    "lon": 135.5063098,
    "category": "attraction"
  },
  {
    "id": "fb-osaka-usj",
    "name_src": "ユニバーサル・スタジオ・ジャパン",
    "name_sc": "日本环球影城",
    "name_tc": "日本環球影城",
    "name_jp": "ユニバーサル・スタジオ・ジャパン",
    "name_en": "Universal Studios Japan",
    "emoji": "🎢",
    "lat": 34.6656393,
    "lon": 135.4324527,
    "category": "attraction"
  },
  {
    "id": "fb-osaka-kaiyukan",
    "name_src": "海遊館",
    "name_sc": "海游馆",
    "name_tc": "海遊館",
    "name_jp": "海遊館",
    "name_en": "Osaka Aquarium Kaiyukan",
    "emoji": "🐠",
    "lat": 34.6545464,
    "lon": 135.4289211,
    "category": "attraction"
  },
  {
    "id": "fb-osaka-shinsaibashi",
    "name_src": "心斎橋",
    "name_sc": "心斋桥",
    "name_tc": "心齋橋",
    "name_jp": "心斎橋",
    "name_en": "Shinsaibashi",
    "emoji": "🛍️",
    "lat": 34.6753751,
    "lon": 135.4992026,
    "category": "attraction"
  },
  {
    "id": "fb-osaka-kansai-airport",
    "name_src": "関西国際空港",
    "name_sc": "关西国际机场",
    "name_tc": "關西國際機場",
    "name_jp": "関西国際空港",
    "name_en": "Kansai International Airport",
    "emoji": "✈️",
    "lat": 34.4342045,
    "lon": 135.222523,
    "category": "attraction"
  },
  {
    "id": "fb-kanagawa-kamakura-daibutsu",
    "name_src": "鎌倉大仏",
    "name_sc": "高德院",
    "name_tc": "高德院",
    "name_jp": "鎌倉大仏",
    "name_en": "Kōtoku-in Temple",
    "emoji": "🧘",
    "lat": 35.3168482,
    "lon": 139.5357212,
    "category": "attraction"
  },
  {
    "id": "fb-kanagawa-tsurugaoka",
    "name_src": "鶴岡八幡宮",
    "name_sc": "鹤冈八幡宫",
    "name_tc": "鶴岡八幡宮",
    "name_jp": "鶴岡八幡宮",
    "name_en": "Tsurugaoka Hachimangū",
    "emoji": "⛩️",
    "lat": 35.3251836,
    "lon": 139.5561787,
    "category": "attraction"
  },
  {
    "id": "fb-kanagawa-enoshima",
    "name_src": "江の島",
    "name_sc": "江之岛",
    "name_tc": "江之島",
    "name_jp": "江の島",
    "name_en": "Enoshima",
    "emoji": "🏝️",
    "lat": 35.3001052,
    "lon": 139.4806371,
    "category": "attraction"
  },
  {
    "id": "fb-kanagawa-yokohama-chinatown",
    "name_src": "横浜中華街",
    "name_sc": "横滨中华街",
    "name_tc": "橫濱中華街",
    "name_jp": "横浜中華街",
    "name_en": "Yokohama Chinatown",
    "emoji": "🥟",
    "lat": 35.4426638,
    "lon": 139.6451907,
    "category": "attraction"
  },
  {
    "id": "fb-kanagawa-minatomirai",
    "name_src": "みなとみらい",
    "name_sc": "港未来町",
    "name_tc": "港未來町",
    "name_jp": "みなとみらい",
    "name_en": "Minatomirai",
    "emoji": "🌉",
    "lat": 35.4572327,
    "lon": 139.6328453,
    "category": "attraction"
  },
  {
    "id": "fb-kanagawa-hakone-onsen",
    "name_src": "箱根温泉",
    "name_sc": "箱根温泉",
    "name_tc": "箱根溫泉",
    "name_jp": "箱根温泉",
    "name_en": "Hakone Onsen",
    "emoji": "♨️",
    "lat": 35.2287271,
    "lon": 139.0946744,
    "category": "attraction"
  },
  {
    "id": "fb-kanagawa-komachi-dori",
    "name_src": "小町通り",
    "name_jp": "小町通り",
    "name_en": "Komachi Street",
    "emoji": "🍡",
    "lat": 35.4451624,
    "lon": 139.362979,
    "category": "attraction"
  },
  {
    "id": "fb-hyogo-himeji-castle",
    "name_src": "姫路城",
    "name_sc": "姬路城",
    "name_tc": "姬路城",
    "name_jp": "姫路城",
    "name_en": "Himeji Castle",
    "emoji": "🏯",
    "lat": 34.8393313,
    "lon": 134.69402,
    "category": "attraction"
  },
  {
    "id": "fb-hyogo-kobe-port-tower",
    "name_src": "神戸ポートタワー",
    "name_sc": "神户港塔",
    "name_tc": "神戶港塔",
    "name_jp": "神戸ポートタワー",
    "name_en": "Kobe Port Tower",
    "emoji": "🗼",
    "lat": 34.6826278,
    "lon": 135.1867241,
    "category": "attraction"
  },
  {
    "id": "fb-hyogo-kitano-ijinkan",
    "name_src": "北野異人館街",
    "name_sc": "北野町山本通",
    "name_tc": "北野町山本通",
    "name_jp": "北野異人館街",
    "name_en": "Kitano-chō and Yamamoto-dōri",
    "emoji": "🏛️",
    "lat": 34.7012602,
    "lon": 135.1897321,
    "category": "attraction"
  },
  {
    "id": "fb-hyogo-arima-onsen",
    "name_src": "有馬温泉",
    "name_sc": "有马温泉",
    "name_tc": "有馬溫泉",
    "name_jp": "有馬温泉",
    "name_en": "Arima Onsen",
    "emoji": "♨️",
    "lat": 34.7992564,
    "lon": 135.2462748,
    "category": "attraction"
  },
  {
    "id": "fb-hyogo-awajishima",
    "name_src": "淡路島",
    "name_sc": "淡路岛",
    "name_tc": "淡路島",
    "name_jp": "淡路島",
    "name_en": "Awaji Island",
    "emoji": "🏝️",
    "lat": 34.3989194,
    "lon": 134.8325215,
    "category": "attraction"
  },
  {
    "id": "fb-aichi-nagoya-castle",
    "name_src": "名古屋城",
    "name_sc": "名古屋城",
    "name_tc": "名古屋城",
    "name_jp": "名古屋城",
    "name_en": "Nagoya Castle",
    "emoji": "🏯",
    "lat": 35.184396,
    "lon": 136.9000992,
    "category": "attraction"
  },
  {
    "id": "fb-aichi-atsuta-jingu",
    "name_src": "熱田神宮",
    "name_sc": "热田神宫",
    "name_tc": "熱田神宮",
    "name_jp": "熱田神宮",
    "name_en": "Atsuta Jingū",
    "emoji": "⛩️",
    "lat": 35.1254307,
    "lon": 136.9092535,
    "category": "attraction"
  },
  {
    "id": "fb-aichi-inuyama-castle",
    "name_src": "犬山城",
    "name_sc": "犬山城",
    "name_tc": "犬山城",
    "name_jp": "犬山城",
    "name_en": "Inuyama Castle",
    "emoji": "🏯",
    "lat": 35.3883304,
    "lon": 136.9392776,
    "category": "attraction"
  },
  {
    "id": "fb-aichi-osu-shotengai",
    "name_src": "大須商店街",
    "name_sc": "大须",
    "name_tc": "大須",
    "name_jp": "大須商店街",
    "name_en": "Ōsu",
    "emoji": "🛍️",
    "lat": 35.158854,
    "lon": 136.903741,
    "category": "attraction"
  },
  {
    "id": "fb-fukuoka-dazaifu",
    "name_src": "太宰府天満宮",
    "name_sc": "太宰府天满宫",
    "name_tc": "太宰府天滿宮",
    "name_jp": "太宰府天満宮",
    "name_en": "Dazaifu Tenmangū",
    "emoji": "⛩️",
    "lat": 33.6194304,
    "lon": 130.421366,
    "category": "attraction"
  },
  {
    "id": "fb-fukuoka-tower",
    "name_src": "福岡タワー",
    "name_sc": "福冈塔",
    "name_tc": "福岡塔",
    "name_jp": "福岡タワー",
    "name_en": "Fukuoka Tower",
    "emoji": "🗼",
    "lat": 33.5932744,
    "lon": 130.3514862,
    "category": "attraction"
  },
  {
    "id": "fb-fukuoka-nakasu-yatai",
    "name_src": "中洲",
    "name_sc": "中洲",
    "name_tc": "中洲",
    "name_jp": "中洲",
    "name_en": "Nakasu",
    "emoji": "🍜",
    "lat": 33.5934757,
    "lon": 130.4056216,
    "category": "attraction"
  },
  {
    "id": "fb-fukuoka-ohori-park",
    "name_src": "大濠公園",
    "name_sc": "大濠公园",
    "name_tc": "大濠公園",
    "name_jp": "大濠公園",
    "name_en": "Ōhori Park",
    "emoji": "🌳",
    "lat": 33.5861214,
    "lon": 130.3763612,
    "category": "attraction"
  },
  {
    "id": "fb-fukuoka-mojiko-retro",
    "name_src": "門司港レトロ",
    "name_sc": "门司港怀旧",
    "name_tc": "門司港懷舊",
    "name_jp": "門司港レトロ",
    "name_en": "Mojikō Retro",
    "emoji": "🚢",
    "lat": 33.945187,
    "lon": 130.9645495,
    "category": "attraction"
  },
  {
    "id": "fb-nara-todaiji",
    "name_src": "東大寺",
    "name_sc": "东大寺",
    "name_tc": "東大寺",
    "name_jp": "東大寺",
    "name_en": "Tōdai-ji Temple",
    "emoji": "🦌",
    "lat": 34.6882437,
    "lon": 135.8397568,
    "category": "attraction"
  },
  {
    "id": "fb-nara-park",
    "name_src": "奈良公園",
    "name_sc": "奈良公园",
    "name_tc": "奈良公園",
    "name_jp": "奈良公園",
    "name_en": "Nara Park",
    "emoji": "🦌",
    "lat": 34.6829008,
    "lon": 135.8545975,
    "category": "attraction"
  },
  {
    "id": "fb-nara-kasuga-taisha",
    "name_src": "春日大社",
    "name_sc": "春日大社",
    "name_tc": "春日大社",
    "name_jp": "春日大社",
    "name_en": "Kasuga-taisha",
    "emoji": "⛩️",
    "lat": 34.6805063,
    "lon": 135.8460746,
    "category": "attraction"
  },
  {
    "id": "fb-nara-horyuji",
    "name_src": "法隆寺",
    "name_sc": "法隆寺",
    "name_tc": "法隆寺",
    "name_jp": "法隆寺",
    "name_en": "Hōryū-ji Temple",
    "emoji": "🏯",
    "lat": 34.614013,
    "lon": 135.7360432,
    "category": "attraction"
  },
  {
    "id": "fb-nara-kofukuji",
    "name_src": "興福寺",
    "name_sc": "兴福寺",
    "name_tc": "興福寺",
    "name_jp": "興福寺",
    "name_en": "Kōfuku-ji Temple",
    "emoji": "⛩️",
    "lat": 34.6829744,
    "lon": 135.8318653,
    "category": "attraction"
  },
  {
    "id": "fb-hokkaido-sapporo-tokeidai",
    "name_src": "札幌時計台",
    "name_sc": "札幌市钟楼",
    "name_tc": "札幌市鐘樓",
    "name_jp": "札幌時計台",
    "name_en": "Sapporo Clock Tower",
    "emoji": "🕰️",
    "lat": 43.0625537,
    "lon": 141.3536448,
    "category": "attraction"
  },
  {
    "id": "fb-hokkaido-hakodateyama",
    "name_src": "函館山",
    "name_sc": "函馆山",
    "name_tc": "函館山",
    "name_jp": "函館山",
    "name_en": "Mount Hakodate",
    "emoji": "🌃",
    "lat": 41.7593192,
    "lon": 140.703984,
    "category": "attraction"
  },
  {
    "id": "fb-hokkaido-otaru-canal",
    "name_src": "小樽運河",
    "name_sc": "小樽运河",
    "name_tc": "小樽運河",
    "name_jp": "小樽運河",
    "name_en": "Otaru Canal",
    "emoji": "🚣",
    "lat": 43.2020231,
    "lon": 141.0006005,
    "category": "attraction"
  },
  {
    "id": "fb-hokkaido-odori-park",
    "name_src": "大通公園",
    "name_sc": "大通公园",
    "name_tc": "大通公園",
    "name_jp": "大通公園",
    "name_en": "Odori Park",
    "emoji": "🌷",
    "lat": 43.0599018,
    "lon": 141.3475101,
    "category": "attraction"
  },
  {
    "id": "fb-hokkaido-asahiyama-zoo",
    "name_src": "旭山動物園",
    "name_sc": "旭川市旭山动物园",
    "name_tc": "旭川市旭山動物園",
    "name_jp": "旭山動物園",
    "name_en": "Asahiyama Zoo",
    "emoji": "🐧",
    "lat": 43.7686424,
    "lon": 142.4792729,
    "category": "attraction"
  },
  {
    "id": "fb-hokkaido-furano-lavender",
    "name_src": "ファーム富田",
    "name_sc": "富田农场",
    "name_tc": "富田農場",
    "name_jp": "ファーム富田",
    "name_en": "Farm Tomita",
    "emoji": "💜",
    "lat": 43.4172981,
    "lon": 142.4254766,
    "category": "attraction"
  },
  {
    "id": "fb-hokkaido-biei-blue-pond",
    "name_src": "青い池",
    "name_sc": "青池",
    "name_tc": "青池",
    "name_jp": "青い池",
    "name_en": "Blue Pond",
    "emoji": "💧",
    "lat": 43.4934902,
    "lon": 142.6140976,
    "category": "attraction"
  },
  {
    "id": "fb-hokkaido-shiretoko",
    "name_src": "知床国立公園",
    "name_sc": "知床国立公园",
    "name_tc": "知牀國立公園",
    "name_jp": "知床国立公園",
    "name_en": "Shiretoko National Park",
    "emoji": "🐻",
    "lat": 44.1757705,
    "lon": 145.2214961,
    "category": "attraction"
  },
  {
    "id": "fb-okinawa-shuri-castle",
    "name_src": "首里城",
    "name_sc": "首里城",
    "name_tc": "首裏城",
    "name_jp": "首里城",
    "name_en": "Shuri Castle",
    "emoji": "🏯",
    "lat": 26.2170014,
    "lon": 127.7193727,
    "category": "attraction"
  },
  {
    "id": "fb-okinawa-churaumi",
    "name_src": "美ら海水族館",
    "name_sc": "冲绳美丽海水族馆",
    "name_tc": "沖繩美麗海水族館",
    "name_jp": "美ら海水族館",
    "name_en": "Okinawa Churaumi Aquarium",
    "emoji": "🐋",
    "lat": 26.6943689,
    "lon": 127.878038,
    "category": "attraction"
  },
  {
    "id": "fb-okinawa-kokusai-dori",
    "name_src": "国際通り",
    "name_sc": "国际通",
    "name_tc": "國際通",
    "name_jp": "国際通り",
    "name_en": "Kokusai-dōri",
    "emoji": "🛍️",
    "lat": 26.2144788,
    "lon": 127.6828091,
    "category": "attraction"
  },
  {
    "id": "fb-okinawa-manzamo",
    "name_src": "万座毛",
    "name_sc": "万座毛",
    "name_tc": "萬座毛",
    "name_jp": "万座毛",
    "name_en": "Cape Manzamo",
    "emoji": "🌊",
    "lat": 26.5050087,
    "lon": 127.8502564,
    "category": "attraction"
  },
  {
    "id": "fb-okinawa-kouri-island",
    "name_src": "古宇利島",
    "name_sc": "古宇利岛",
    "name_tc": "古宇利島",
    "name_jp": "古宇利島",
    "name_en": "Kouri Island",
    "emoji": "🏝️",
    "lat": 26.704251,
    "lon": 128.0180847,
    "category": "attraction"
  },
  {
    "id": "fb-okinawa-ishigaki",
    "name_src": "石垣島",
    "name_sc": "石垣岛",
    "name_tc": "石垣島",
    "name_jp": "石垣島",
    "name_en": "Ishigaki Island",
    "emoji": "🏖️",
    "lat": 24.4710165,
    "lon": 124.2385061,
    "category": "attraction"
  },
  {
    "id": "fb-hiroshima-itsukushima",
    "name_src": "厳島神社",
    "name_sc": "严岛神社",
    "name_tc": "嚴島神社",
    "name_jp": "厳島神社",
    "name_en": "Itsukushima Shrine",
    "emoji": "⛩️",
    "lat": 34.2965418,
    "lon": 132.3190077,
    "category": "attraction"
  },
  {
    "id": "fb-hiroshima-genbaku-dome",
    "name_src": "原爆ドーム",
    "name_sc": "原子弹爆炸圆顶屋",
    "name_tc": "原子彈爆炸圓頂屋",
    "name_jp": "原爆ドーム",
    "name_en": "Hiroshima Peace Memorial",
    "emoji": "🕊️",
    "lat": 34.3954661,
    "lon": 132.4535245,
    "category": "attraction"
  },
  {
    "id": "fb-hiroshima-peace-park",
    "name_src": "平和記念公園",
    "name_sc": "广岛和平纪念公园",
    "name_tc": "廣島和平紀念公園",
    "name_jp": "平和記念公園",
    "name_en": "Hiroshima Peace Memorial Park",
    "emoji": "🕊️",
    "lat": 34.3931714,
    "lon": 132.4523008,
    "category": "attraction"
  },
  {
    "id": "fb-hiroshima-onomichi",
    "name_src": "尾道",
    "name_jp": "尾道",
    "name_en": "Onomichi",
    "emoji": "🚲",
    "lat": 34.4048206,
    "lon": 133.1931084,
    "category": "attraction"
  },
  {
    "id": "fb-nagasaki-peace-park",
    "name_src": "長崎平和公園",
    "name_sc": "长崎和平公园",
    "name_tc": "長崎和平公園",
    "name_jp": "長崎平和公園",
    "name_en": "Nagasaki Peace Park",
    "emoji": "🕊️",
    "lat": 32.7738412,
    "lon": 129.8620744,
    "category": "attraction"
  },
  {
    "id": "fb-nagasaki-oura-church",
    "name_src": "大浦天主堂",
    "name_sc": "大浦天主堂",
    "name_tc": "大浦天主堂",
    "name_jp": "大浦天主堂",
    "name_en": "Ōura Church",
    "emoji": "⛪",
    "lat": 32.734189,
    "lon": 129.8701625,
    "category": "attraction"
  },
  {
    "id": "fb-nagasaki-glover-garden",
    "name_src": "グラバー園",
    "name_sc": "哥拉巴园",
    "name_tc": "哥拉巴園",
    "name_jp": "グラバー園",
    "name_en": "Glover Garden",
    "emoji": "🏛️",
    "lat": 32.7333666,
    "lon": 129.869055,
    "category": "attraction"
  },
  {
    "id": "fb-nagasaki-huis-ten-bosch",
    "name_src": "ハウステンボス",
    "name_sc": "豪斯登堡",
    "name_tc": "豪斯登堡",
    "name_jp": "ハウステンボス",
    "name_en": "Huis Ten Bosch",
    "emoji": "🌷",
    "lat": 33.0862043,
    "lon": 129.7883148,
    "category": "attraction"
  },
  {
    "id": "fb-nagasaki-gunkanjima",
    "name_src": "端島",
    "name_sc": "端岛",
    "name_tc": "端島",
    "name_jp": "端島",
    "name_en": "Hashima Island",
    "emoji": "🏝️",
    "lat": 32.6276879,
    "lon": 129.7382578,
    "category": "attraction"
  },
  {
    "id": "fb-yamanashi-mt-fuji",
    "name_src": "富士山",
    "name_sc": "富士山",
    "name_tc": "富士山",
    "name_jp": "富士山",
    "name_en": "Mount Fuji",
    "emoji": "🗻",
    "lat": 35.3628384,
    "lon": 138.7307677,
    "category": "attraction"
  },
  {
    "id": "fb-yamanashi-kawaguchiko",
    "name_src": "河口湖",
    "name_sc": "河口湖",
    "name_tc": "河口湖",
    "name_jp": "河口湖",
    "name_en": "Lake Kawaguchi",
    "emoji": "🗻",
    "lat": 35.5130603,
    "lon": 138.7448243,
    "category": "attraction"
  },
  {
    "id": "fb-yamanashi-oshino-hakkai",
    "name_src": "忍野八海",
    "name_sc": "忍野八海",
    "name_tc": "忍野八海",
    "name_jp": "忍野八海",
    "name_en": "Oshino Hakkai",
    "emoji": "💧",
    "lat": 35.4602407,
    "lon": 138.8327032,
    "category": "attraction"
  },
  {
    "id": "fb-yamanashi-arakurayama",
    "name_src": "新倉山浅間公園",
    "name_sc": "新仓山浅间公园",
    "name_tc": "新倉山淺間公園",
    "name_jp": "新倉山浅間公園",
    "name_en": "Arakurayama Sengen Park",
    "emoji": "🗻",
    "lat": 35.5004871,
    "lon": 138.80082,
    "category": "attraction"
  },
  {
    "id": "fb-shizuoka-miho-no-matsubara",
    "name_src": "三保松原",
    "name_sc": "三保之松原",
    "name_tc": "三保之松原",
    "name_jp": "三保松原",
    "name_en": "Miho no Matsubara",
    "emoji": "🌲",
    "lat": 35.0009173,
    "lon": 138.5174482,
    "category": "attraction"
  },
  {
    "id": "fb-shizuoka-atami-onsen",
    "name_src": "熱海温泉",
    "name_sc": "热海温泉",
    "name_tc": "熱海溫泉",
    "name_jp": "熱海温泉",
    "name_en": "Atami Onsen",
    "emoji": "♨️",
    "lat": 35.1457298,
    "lon": 139.0730642,
    "category": "attraction"
  },
  {
    "id": "fb-shizuoka-izu-peninsula",
    "name_src": "伊豆半島",
    "name_sc": "伊豆半岛",
    "name_tc": "伊豆半島",
    "name_jp": "伊豆半島",
    "name_en": "Izu Peninsula",
    "emoji": "🏖️",
    "lat": 34.917385,
    "lon": 138.9628947,
    "category": "attraction"
  },
  {
    "id": "fb-shizuoka-kunozan-toshogu",
    "name_src": "久能山東照宮",
    "name_sc": "久能山东照宫",
    "name_tc": "久能山東照宮",
    "name_jp": "久能山東照宮",
    "name_en": "Kunōzan Tōshō-gū",
    "emoji": "⛩️",
    "lat": 34.9647856,
    "lon": 138.4675976,
    "category": "attraction"
  },
  {
    "id": "fb-nagano-matsumoto-castle",
    "name_src": "松本城",
    "name_sc": "松本城",
    "name_tc": "松本城",
    "name_jp": "松本城",
    "name_en": "Matsumoto Castle",
    "emoji": "🏯",
    "lat": 36.2386353,
    "lon": 137.9688709,
    "category": "attraction"
  },
  {
    "id": "fb-nagano-zenkoji",
    "name_src": "善光寺",
    "name_sc": "善光寺",
    "name_tc": "善光寺",
    "name_jp": "善光寺",
    "name_en": "Zenkō-ji Temple",
    "emoji": "⛩️",
    "lat": 36.6614233,
    "lon": 138.1876577,
    "category": "attraction"
  },
  {
    "id": "fb-nagano-kamikochi",
    "name_src": "上高地",
    "name_sc": "上高地",
    "name_tc": "上高地",
    "name_jp": "上高地",
    "name_en": "Kamikōchi",
    "emoji": "⛰️",
    "lat": 36.2539303,
    "lon": 137.6609406,
    "category": "attraction"
  },
  {
    "id": "fb-nagano-jigokudani-monkey",
    "name_src": "地獄谷野猿公苑",
    "name_sc": "地狱谷野猿公苑",
    "name_tc": "地獄谷野猿公苑",
    "name_jp": "地獄谷野猿公苑",
    "name_en": "Jigokudani Monkey Park",
    "emoji": "🐒",
    "lat": 36.7328118,
    "lon": 138.4623185,
    "category": "attraction"
  },
  {
    "id": "fb-nagano-karuizawa",
    "name_src": "軽井沢",
    "name_sc": "轻井泽",
    "name_tc": "輕井澤",
    "name_jp": "軽井沢",
    "name_en": "Karuizawa",
    "emoji": "🌲",
    "lat": 36.3428502,
    "lon": 138.6341737,
    "category": "attraction"
  },
  {
    "id": "fb-tochigi-nikko-toshogu",
    "name_src": "日光東照宮",
    "name_sc": "日光东照宫",
    "name_tc": "日光東照宮",
    "name_jp": "日光東照宮",
    "name_en": "Nikkō Tōshō-gū",
    "emoji": "⛩️",
    "lat": 36.7576378,
    "lon": 139.59911,
    "category": "attraction"
  },
  {
    "id": "fb-tochigi-kegon-falls",
    "name_src": "華厳の滝",
    "name_sc": "华严瀑布",
    "name_tc": "華嚴瀑布",
    "name_jp": "華厳の滝",
    "name_en": "Kegon Falls",
    "emoji": "💦",
    "lat": 36.737944,
    "lon": 139.5040485,
    "category": "attraction"
  },
  {
    "id": "fb-tochigi-chuzenji-lake",
    "name_src": "中禅寺湖",
    "name_sc": "中禅寺湖",
    "name_tc": "中禪寺湖",
    "name_jp": "中禅寺湖",
    "name_en": "Lake Chūzenji",
    "emoji": "🌊",
    "lat": 36.7368493,
    "lon": 139.4768685,
    "category": "attraction"
  },
  {
    "id": "fb-tochigi-kinugawa-onsen",
    "name_src": "鬼怒川温泉",
    "name_sc": "鬼怒川温泉",
    "name_tc": "鬼怒川溫泉",
    "name_jp": "鬼怒川温泉",
    "name_en": "Kinugawa Onsen",
    "emoji": "♨️",
    "lat": 36.8225757,
    "lon": 139.7166967,
    "category": "attraction"
  },
  {
    "id": "fb-tochigi-nasu-kogen",
    "name_src": "那須高原",
    "name_sc": "那须高原",
    "name_tc": "那須高原",
    "name_jp": "那須高原",
    "name_en": "Nasu Highlands",
    "emoji": "🐄",
    "lat": 37.0747053,
    "lon": 140.0052522,
    "category": "attraction"
  },
  {
    "id": "fb-gunma-kusatsu-onsen",
    "name_src": "草津温泉",
    "name_sc": "草津温泉",
    "name_tc": "草津溫泉",
    "name_jp": "草津温泉",
    "name_en": "Kusatsu Onsen",
    "emoji": "♨️",
    "lat": 36.6208329,
    "lon": 138.5963107,
    "category": "attraction"
  },
  {
    "id": "fb-gunma-ikaho-onsen",
    "name_src": "伊香保温泉",
    "name_sc": "伊香保温泉(森秋旅館)",
    "name_tc": "伊香保溫泉(森秋旅館)",
    "name_jp": "伊香保温泉",
    "name_en": "Ikaho Onsen",
    "emoji": "♨️",
    "lat": 36.4971021,
    "lon": 138.9189433,
    "category": "attraction"
  },
  {
    "id": "fb-gunma-tomioka-silk-mill",
    "name_src": "富岡製糸場",
    "name_sc": "富冈制纱厂",
    "name_tc": "富岡制紗廠",
    "name_jp": "富岡製糸場",
    "name_en": "Tomioka Silk Mill",
    "emoji": "🏛️",
    "lat": 36.2554386,
    "lon": 138.8876423,
    "category": "attraction"
  },
  {
    "id": "fb-gunma-tanigawadake",
    "name_src": "谷川岳",
    "name_sc": "谷川岳",
    "name_tc": "谷川嶽",
    "name_jp": "谷川岳",
    "name_en": "Mount Tanigawa",
    "emoji": "⛰️",
    "lat": 36.8371075,
    "lon": 138.9301794,
    "category": "attraction"
  },
  {
    "id": "fb-mie-ise-jingu",
    "name_src": "伊勢神宮",
    "name_sc": "伊势神宫",
    "name_tc": "伊勢神宮",
    "name_jp": "伊勢神宮",
    "name_en": "Ise Jingū",
    "emoji": "⛩️",
    "lat": 34.4568901,
    "lon": 136.722978,
    "category": "attraction"
  },
  {
    "id": "fb-mie-toba-aquarium",
    "name_src": "鳥羽水族館",
    "name_sc": "鸟羽水族馆",
    "name_tc": "鳥羽水族館",
    "name_jp": "鳥羽水族館",
    "name_en": "Toba Aquarium",
    "emoji": "🐬",
    "lat": 34.4820148,
    "lon": 136.8453304,
    "category": "attraction"
  },
  {
    "id": "fb-mie-meoto-iwa",
    "name_src": "夫婦岩",
    "name_sc": "夫妇岩",
    "name_tc": "夫婦巖",
    "name_jp": "夫婦岩",
    "name_en": "Meoto Iwa",
    "emoji": "🪨",
    "lat": 34.3016234,
    "lon": 136.8511441,
    "category": "attraction"
  },
  {
    "id": "fb-mie-kumano-kodo",
    "name_src": "熊野古道",
    "name_sc": "熊野古道",
    "name_tc": "熊野古道",
    "name_jp": "熊野古道",
    "name_en": "Kumano Kodō",
    "emoji": "🥾",
    "lat": 33.9483471,
    "lon": 136.1886085,
    "category": "attraction"
  },
  {
    "id": "fb-wakayama-koyasan",
    "name_src": "高野山",
    "name_sc": "高野山",
    "name_tc": "高野山",
    "name_jp": "高野山",
    "name_en": "Mount Kōya",
    "emoji": "🏯",
    "lat": 34.212105,
    "lon": 135.582004,
    "category": "attraction"
  },
  {
    "id": "fb-wakayama-kumano-nachi",
    "name_src": "熊野那智大社",
    "name_sc": "熊野那智大社",
    "name_tc": "熊野那智大社",
    "name_jp": "熊野那智大社",
    "name_en": "Kumano Nachi Taisha",
    "emoji": "⛩️",
    "lat": 33.6684286,
    "lon": 135.8904398,
    "category": "attraction"
  },
  {
    "id": "fb-wakayama-nachi-falls",
    "name_src": "那智の滝",
    "name_sc": "那智瀑布",
    "name_tc": "那智瀑布",
    "name_jp": "那智の滝",
    "name_en": "Nachi Falls",
    "emoji": "💦",
    "lat": 33.672,
    "lon": 135.891,
    "category": "attraction"
  },
  {
    "id": "fb-wakayama-shirahama-onsen",
    "name_src": "南紀白浜温泉",
    "name_sc": "南纪白滨温泉",
    "name_tc": "南紀白濱溫泉",
    "name_jp": "南紀白浜温泉",
    "name_en": "Nanki-Shirahama Onsen",
    "emoji": "♨️",
    "lat": 33.6936902,
    "lon": 135.3361146,
    "category": "attraction"
  },
  {
    "id": "fb-shiga-biwako",
    "name_src": "琵琶湖",
    "name_sc": "琵琶湖",
    "name_tc": "琵琶湖",
    "name_jp": "琵琶湖",
    "name_en": "Lake Biwa",
    "emoji": "🌊",
    "lat": 35.2486461,
    "lon": 136.0825575,
    "category": "attraction"
  },
  {
    "id": "fb-shiga-hikone-castle",
    "name_src": "彦根城",
    "name_sc": "彦根城",
    "name_tc": "彥根城",
    "name_jp": "彦根城",
    "name_en": "Hikone Castle",
    "emoji": "🏯",
    "lat": 35.2771014,
    "lon": 136.2517174,
    "category": "attraction"
  },
  {
    "id": "fb-shiga-hieizan-enryakuji",
    "name_src": "比叡山延暦寺",
    "name_sc": "延历寺",
    "name_tc": "延歷寺",
    "name_jp": "比叡山延暦寺",
    "name_en": "Enryaku-ji Temple",
    "emoji": "⛩️",
    "lat": 35.0710355,
    "lon": 135.8655837,
    "category": "attraction"
  },
  {
    "id": "fb-shiga-shirahige-jinja",
    "name_src": "白鬚神社",
    "name_sc": "白须神社",
    "name_tc": "白鬚神社",
    "name_jp": "白鬚神社",
    "name_en": "Shirahige Shrine",
    "emoji": "⛩️",
    "lat": 35.2745787,
    "lon": 136.0111351,
    "category": "attraction"
  },
  {
    "id": "fb-gifu-shirakawago",
    "name_src": "白川郷",
    "name_sc": "白川乡",
    "name_tc": "白川鄉",
    "name_jp": "白川郷",
    "name_en": "Shirakawa-gō",
    "emoji": "🏘️",
    "lat": 36.2573454,
    "lon": 136.9068317,
    "category": "attraction"
  },
  {
    "id": "fb-gifu-hida-takayama",
    "name_src": "飛騨高山",
    "name_sc": "高山市",
    "name_tc": "高山市",
    "name_jp": "飛騨高山",
    "name_en": "Takayama",
    "emoji": "🍶",
    "lat": 36.2112755,
    "lon": 137.2157892,
    "category": "attraction"
  },
  {
    "id": "fb-gifu-gero-onsen",
    "name_src": "下呂温泉",
    "name_sc": "下吕温泉",
    "name_tc": "下呂溫泉",
    "name_jp": "下呂温泉",
    "name_en": "Gero Onsen",
    "emoji": "♨️",
    "lat": 35.9233233,
    "lon": 137.4475138,
    "category": "attraction"
  },
  {
    "id": "fb-gifu-gujo-hachiman",
    "name_src": "郡上八幡",
    "name_sc": "八幡町",
    "name_tc": "八幡町",
    "name_jp": "郡上八幡",
    "name_en": "Hachiman",
    "emoji": "🏯",
    "lat": 35.7418904,
    "lon": 136.9473551,
    "category": "attraction"
  },
  {
    "id": "fb-ishikawa-kenrokuen",
    "name_src": "兼六園",
    "name_sc": "兼六园",
    "name_tc": "兼六園",
    "name_jp": "兼六園",
    "name_en": "Kenroku-en",
    "emoji": "🌳",
    "lat": 36.5624267,
    "lon": 136.6623546,
    "category": "attraction"
  },
  {
    "id": "fb-ishikawa-21st-century-museum",
    "name_src": "金沢21世紀美術館",
    "name_sc": "金泽21世纪美术馆",
    "name_tc": "金澤21世紀美術館",
    "name_jp": "金沢21世紀美術館",
    "name_en": "21st Century Museum of Contemporary Art",
    "emoji": "🎨",
    "lat": 36.5608382,
    "lon": 136.6582097,
    "category": "attraction"
  },
  {
    "id": "fb-ishikawa-higashi-chaya",
    "name_src": "ひがし茶屋街",
    "name_sc": "东山东",
    "name_tc": "東山東",
    "name_jp": "ひがし茶屋街",
    "name_en": "Higashiyama-Higashi",
    "emoji": "🏮",
    "lat": 36.5725559,
    "lon": 136.6666756,
    "category": "attraction"
  },
  {
    "id": "fb-ishikawa-omicho-market",
    "name_src": "近江町市場",
    "name_jp": "近江町市場",
    "name_en": "Ōmichō Market",
    "emoji": "🐟",
    "lat": 36.5706905,
    "lon": 136.6569553,
    "category": "attraction"
  },
  {
    "id": "fb-ishikawa-shiroyone-senmaida",
    "name_src": "白米千枚田",
    "name_sc": "白米千枚田",
    "name_tc": "白米千枚田",
    "name_jp": "白米千枚田",
    "name_en": "Shiroyone Senmaida",
    "emoji": "🌾",
    "lat": 37.425699,
    "lon": 136.9990287,
    "category": "attraction"
  },
  {
    "id": "fb-toyama-tateyama-kurobe",
    "name_src": "立山黒部アルペンルート",
    "name_sc": "立山黑部阿尔卑斯路线",
    "name_tc": "立山黑部阿爾卑斯路線",
    "name_jp": "立山黒部アルペンルート",
    "name_en": "Tateyama Kurobe Alpine Route",
    "emoji": "⛰️",
    "lat": 36.5771869,
    "lon": 137.4942412,
    "category": "attraction"
  },
  {
    "id": "fb-toyama-kurobe-gorge",
    "name_src": "黒部峡谷",
    "name_sc": "黑部峡谷",
    "name_tc": "黑部峽谷",
    "name_jp": "黒部峡谷",
    "name_en": "Kurobe Gorge",
    "emoji": "🚂",
    "lat": 36.9105982,
    "lon": 137.5847774,
    "category": "attraction"
  },
  {
    "id": "fb-toyama-gokayama",
    "name_src": "五箇山",
    "name_sc": "五箇山",
    "name_tc": "五箇山",
    "name_jp": "五箇山",
    "name_en": "Gokayama",
    "emoji": "🏘️",
    "lat": 36.4099428,
    "lon": 136.9335683,
    "category": "attraction"
  },
  {
    "id": "fb-toyama-amaharashi",
    "name_src": "雨晴海岸",
    "name_sc": "雨晴海岸",
    "name_tc": "雨晴海岸",
    "name_jp": "雨晴海岸",
    "name_en": "Amaharashi Coast",
    "emoji": "🌊",
    "lat": 36.8150912,
    "lon": 137.0418162,
    "category": "attraction"
  },
  {
    "id": "fb-fukui-eiheiji",
    "name_src": "永平寺",
    "name_sc": "永平寺",
    "name_tc": "永平寺",
    "name_jp": "永平寺",
    "name_en": "Eihei-ji Temple",
    "emoji": "⛩️",
    "lat": 36.0557075,
    "lon": 136.3560152,
    "category": "attraction"
  },
  {
    "id": "fb-fukui-tojinbo",
    "name_src": "東尋坊",
    "name_sc": "东寻坊",
    "name_tc": "東尋坊",
    "name_jp": "東尋坊",
    "name_en": "Tōjinbō",
    "emoji": "🪨",
    "lat": 36.2378867,
    "lon": 136.1256526,
    "category": "attraction"
  },
  {
    "id": "fb-fukui-dinosaur-museum",
    "name_src": "福井県立恐竜博物館",
    "name_sc": "福井县立恐龙博物馆",
    "name_tc": "福井縣立恐龍博物館",
    "name_jp": "福井県立恐竜博物館",
    "name_en": "Fukui Prefectural Dinosaur Museum",
    "emoji": "🦕",
    "lat": 36.0823042,
    "lon": 136.5065708,
    "category": "attraction"
  },
  {
    "id": "fb-fukui-ichijodani",
    "name_src": "一乗谷朝倉氏遺跡",
    "name_sc": "一乘谷朝仓氏遗迹",
    "name_tc": "一乘谷朝倉氏遺蹟",
    "name_jp": "一乗谷朝倉氏遺跡",
    "name_en": "Ichijōdani Asakura Family Historic Ruins",
    "emoji": "🏯",
    "lat": 36.0089241,
    "lon": 136.3007627,
    "category": "attraction"
  },
  {
    "id": "fb-niigata-sadogashima",
    "name_src": "佐渡島",
    "name_sc": "佐渡岛",
    "name_tc": "佐渡島",
    "name_jp": "佐渡島",
    "name_en": "Sado Island",
    "emoji": "🏝️",
    "lat": 38.0673186,
    "lon": 138.3514426,
    "category": "attraction"
  },
  {
    "id": "fb-niigata-echigo-yuzawa",
    "name_src": "越後湯沢温泉",
    "name_sc": "越后汤泽温泉",
    "name_tc": "越後湯澤溫泉",
    "name_jp": "越後湯沢温泉",
    "name_en": "Echigo Yuzawa Onsen",
    "emoji": "♨️",
    "lat": 38.0900996,
    "lon": 139.5600611,
    "category": "attraction"
  },
  {
    "id": "fb-niigata-naeba",
    "name_src": "苗場",
    "name_sc": "苗场山",
    "name_tc": "苗場山",
    "name_jp": "苗場",
    "name_en": "Mount Naeba",
    "emoji": "🎿",
    "lat": 36.8459419,
    "lon": 138.690323,
    "category": "attraction"
  },
  {
    "id": "fb-niigata-yahiko-jinja",
    "name_src": "弥彦神社",
    "name_sc": "弥彦神社",
    "name_tc": "彌彥神社",
    "name_jp": "弥彦神社",
    "name_en": "Yahiko Shrine",
    "emoji": "⛩️",
    "lat": 37.7069097,
    "lon": 138.8262161,
    "category": "attraction"
  },
  {
    "id": "fb-aomori-hirosaki-castle",
    "name_src": "弘前城",
    "name_sc": "弘前城",
    "name_tc": "弘前城",
    "name_jp": "弘前城",
    "name_en": "Hirosaki Castle",
    "emoji": "🌸",
    "lat": 40.6079291,
    "lon": 140.4636605,
    "category": "attraction"
  },
  {
    "id": "fb-aomori-oirase-keiryu",
    "name_src": "奥入瀬",
    "name_jp": "奥入瀬",
    "emoji": "🍁",
    "lat": 40.6369169,
    "lon": 141.2019437,
    "category": "attraction"
  },
  {
    "id": "fb-aomori-towadako",
    "name_src": "十和田湖",
    "name_sc": "十和田湖",
    "name_tc": "十和田湖",
    "name_jp": "十和田湖",
    "name_en": "Lake Towada",
    "emoji": "🌊",
    "lat": 40.4586552,
    "lon": 140.8711305,
    "category": "attraction"
  },
  {
    "id": "fb-aomori-osorezan",
    "name_src": "恐山",
    "name_sc": "恐山",
    "name_tc": "恐山",
    "name_jp": "恐山",
    "name_en": "Mount Osore",
    "emoji": "⛰️",
    "lat": 41.3169493,
    "lon": 141.0876763,
    "category": "attraction"
  },
  {
    "id": "fb-iwate-chusonji-konjikido",
    "name_src": "中尊寺",
    "name_sc": "中尊寺",
    "name_tc": "中尊寺",
    "name_jp": "中尊寺",
    "name_en": "Chūson-ji Temple",
    "emoji": "🏯",
    "lat": 39.000941,
    "lon": 141.1020699,
    "category": "attraction"
  },
  {
    "id": "fb-iwate-genbikei",
    "name_src": "厳美渓",
    "name_sc": "严美溪",
    "name_tc": "嚴美溪",
    "name_jp": "厳美渓",
    "name_en": "Genbikei",
    "emoji": "💦",
    "lat": 38.9441263,
    "lon": 141.0475643,
    "category": "attraction"
  },
  {
    "id": "fb-iwate-jodogahama",
    "name_src": "浄土ヶ浜",
    "name_sc": "净土滨",
    "name_tc": "淨土濱",
    "name_jp": "浄土ヶ浜",
    "name_en": "Jōdogahama",
    "emoji": "🌊",
    "lat": 39.6524503,
    "lon": 141.9787366,
    "category": "attraction"
  },
  {
    "id": "fb-iwate-ryusendo",
    "name_src": "龍泉洞",
    "name_sc": "龙泉洞",
    "name_tc": "龍泉洞",
    "name_jp": "龍泉洞",
    "name_en": "Ryusendo Cave",
    "emoji": "🕳️",
    "lat": 39.8601483,
    "lon": 141.7970366,
    "category": "attraction"
  },
  {
    "id": "fb-miyagi-matsushima",
    "name_src": "松島",
    "name_sc": "松岛",
    "name_tc": "松島",
    "name_jp": "松島",
    "name_en": "Matsushima",
    "emoji": "🏝️",
    "lat": 38.3670646,
    "lon": 141.071251,
    "category": "attraction"
  },
  {
    "id": "fb-miyagi-sendai-castle",
    "name_src": "仙台城跡",
    "name_sc": "仙台城",
    "name_tc": "仙台城",
    "name_jp": "仙台城跡",
    "name_en": "Sendai Castle",
    "emoji": "🏯",
    "lat": 38.2528362,
    "lon": 140.8567254,
    "category": "attraction"
  },
  {
    "id": "fb-miyagi-naruko-onsen",
    "name_src": "鳴子温泉",
    "name_sc": "鸣子温泉",
    "name_tc": "鳴子溫泉",
    "name_jp": "鳴子温泉",
    "name_en": "Naruko Onsen",
    "emoji": "♨️",
    "lat": 38.743466,
    "lon": 140.716093,
    "category": "attraction"
  },
  {
    "id": "fb-miyagi-zao-okama",
    "name_src": "御釜",
    "name_sc": "御釜",
    "name_tc": "御釜",
    "name_jp": "御釜",
    "name_en": "Okama",
    "emoji": "🌋",
    "lat": 38.1364301,
    "lon": 140.4495359,
    "category": "attraction"
  },
  {
    "id": "fb-akita-kakunodate",
    "name_src": "角館武家屋敷",
    "name_sc": "武家屋敷通",
    "name_tc": "武家屋敷通",
    "name_jp": "角館武家屋敷",
    "name_en": "Bukeyashiki Street",
    "emoji": "🌸",
    "lat": 39.5978313,
    "lon": 140.5621565,
    "category": "attraction"
  },
  {
    "id": "fb-akita-tazawako",
    "name_src": "田沢湖",
    "name_sc": "田泽湖",
    "name_tc": "田澤湖",
    "name_jp": "田沢湖",
    "name_en": "Lake Tazawa",
    "emoji": "🌊",
    "lat": 39.7248371,
    "lon": 140.6632728,
    "category": "attraction"
  },
  {
    "id": "fb-akita-oga-peninsula",
    "name_src": "男鹿半島",
    "name_sc": "男鹿半岛",
    "name_tc": "男鹿半島",
    "name_jp": "男鹿半島",
    "name_en": "Oga Peninsula",
    "emoji": "🌊",
    "lat": 39.9422815,
    "lon": 139.7044531,
    "category": "attraction"
  },
  {
    "id": "fb-akita-nyuto-onsen",
    "name_src": "乳頭温泉郷",
    "name_sc": "乳头温泉乡",
    "name_tc": "乳頭溫泉鄉",
    "name_jp": "乳頭温泉郷",
    "name_en": "Nyuto Spa Resort",
    "emoji": "♨️",
    "lat": 39.8007643,
    "lon": 140.7950179,
    "category": "attraction"
  },
  {
    "id": "fb-yamagata-yamadera",
    "name_src": "立石寺",
    "name_sc": "立石寺",
    "name_tc": "立石寺",
    "name_jp": "立石寺",
    "name_en": "Yama-dera Temple",
    "emoji": "⛩️",
    "lat": 38.3125626,
    "lon": 140.4373997,
    "category": "attraction"
  },
  {
    "id": "fb-yamagata-ginzan-onsen",
    "name_src": "銀山温泉",
    "name_sc": "银山温泉",
    "name_tc": "銀山溫泉",
    "name_jp": "銀山温泉",
    "name_en": "Ginzan Onsen",
    "emoji": "♨️",
    "lat": 38.5720873,
    "lon": 140.5281569,
    "category": "attraction"
  },
  {
    "id": "fb-yamagata-zao-juhyo",
    "name_src": "樹氷",
    "name_sc": "雾凇",
    "name_tc": "霧凇",
    "name_jp": "樹氷",
    "name_en": "rime ice",
    "emoji": "🌲",
    "lat": 38.2150393,
    "lon": 140.3203674,
    "category": "attraction"
  },
  {
    "id": "fb-yamagata-gassan",
    "name_src": "月山",
    "name_sc": "月山",
    "name_tc": "月山",
    "name_jp": "月山",
    "name_en": "Mount Gassan",
    "emoji": "⛰️",
    "lat": 38.5486934,
    "lon": 140.0268363,
    "category": "attraction"
  },
  {
    "id": "fb-fukushima-tsurugajo",
    "name_src": "若松城",
    "name_sc": "会津若松城",
    "name_tc": "會津若松城",
    "name_jp": "若松城",
    "name_en": "Aizuwakamatsu Castle",
    "emoji": "🏯",
    "lat": 37.4877353,
    "lon": 139.9297661,
    "category": "attraction"
  },
  {
    "id": "fb-fukushima-ouchi-juku",
    "name_src": "大内宿",
    "name_sc": "大内宿",
    "name_tc": "大內宿",
    "name_jp": "大内宿",
    "name_en": "Ōuchi-juku",
    "emoji": "🏘️",
    "lat": 37.3336291,
    "lon": 139.8606616,
    "category": "attraction"
  },
  {
    "id": "fb-fukushima-goshikinuma",
    "name_src": "五色沼 (福島県)",
    "name_jp": "五色沼 (福島県)",
    "emoji": "💎",
    "lat": 37.7406285,
    "lon": 140.2431745,
    "category": "attraction"
  },
  {
    "id": "fb-fukushima-aizu-wakamatsu",
    "name_src": "会津若松",
    "name_sc": "会津若松市",
    "name_tc": "會津若松市",
    "name_jp": "会津若松",
    "name_en": "Aizuwakamatsu",
    "emoji": "🏯",
    "lat": 37.5085622,
    "lon": 139.9301344,
    "category": "attraction"
  },
  {
    "id": "fb-ehime-dogo-onsen",
    "name_src": "道後温泉",
    "name_sc": "道后温泉",
    "name_tc": "道後溫泉",
    "name_jp": "道後温泉",
    "name_en": "Dōgo Onsen",
    "emoji": "♨️",
    "lat": 33.8504258,
    "lon": 132.7850817,
    "category": "attraction"
  },
  {
    "id": "fb-ehime-matsuyama-castle",
    "name_src": "松山城",
    "name_sc": "松山城",
    "name_tc": "松山城",
    "name_jp": "松山城",
    "name_en": "Matsuyama Castle",
    "emoji": "🏯",
    "lat": 33.845651,
    "lon": 132.7657463,
    "category": "attraction"
  },
  {
    "id": "fb-ehime-shimonada-station",
    "name_src": "下灘駅",
    "name_sc": "下滩站",
    "name_tc": "下灘站",
    "name_jp": "下灘駅",
    "name_en": "Shimonada Station",
    "emoji": "🚉",
    "lat": 33.6554175,
    "lon": 132.5894116,
    "category": "attraction"
  },
  {
    "id": "fb-ehime-omishima",
    "name_src": "大三島",
    "name_sc": "大三岛",
    "name_tc": "大三島",
    "name_jp": "大三島",
    "name_en": "Ōmishima",
    "emoji": "⛩️",
    "lat": 34.2454272,
    "lon": 133.022881,
    "category": "attraction"
  },
  {
    "id": "fb-kagawa-ritsurin-koen",
    "name_src": "栗林公園",
    "name_sc": "栗林公园",
    "name_tc": "慄林公園",
    "name_jp": "栗林公園",
    "name_en": "Ritsurin Garden",
    "emoji": "🌳",
    "lat": 34.3294971,
    "lon": 134.0439264,
    "category": "attraction"
  },
  {
    "id": "fb-kagawa-kotohiragu",
    "name_src": "金刀比羅宮",
    "name_sc": "金刀比罗宫",
    "name_tc": "金刀比羅宮",
    "name_jp": "金刀比羅宮",
    "name_en": "Kotohira-gū",
    "emoji": "⛩️",
    "lat": 34.1839885,
    "lon": 133.8093897,
    "category": "attraction"
  },
  {
    "id": "fb-kagawa-shodoshima",
    "name_src": "小豆島",
    "name_sc": "小豆岛",
    "name_tc": "小豆島",
    "name_jp": "小豆島",
    "name_en": "Shōdo Island",
    "emoji": "🏝️",
    "lat": 34.489774,
    "lon": 134.2603733,
    "category": "attraction"
  },
  {
    "id": "fb-kagawa-naoshima",
    "name_src": "直島",
    "name_jp": "直島",
    "name_en": "Naoshima",
    "emoji": "🎨",
    "lat": 34.4604255,
    "lon": 133.984582,
    "category": "attraction"
  },
  {
    "id": "fb-tokushima-naruto-whirlpools",
    "name_src": "鳴門の渦潮",
    "name_sc": "鸣门漩涡",
    "name_tc": "鳴門漩渦",
    "name_jp": "鳴門の渦潮",
    "name_en": "Naruto whirlpools",
    "emoji": "🌊",
    "lat": 34.2366261,
    "lon": 134.6510518,
    "category": "attraction"
  },
  {
    "id": "fb-tokushima-awa-odori-kaikan",
    "name_src": "阿波おどり会館",
    "name_sc": "阿波舞会馆",
    "name_tc": "阿波舞會館",
    "name_jp": "阿波おどり会館",
    "name_en": "Awa Odori Kaikan",
    "emoji": "💃",
    "lat": 34.0701944,
    "lon": 134.5450768,
    "category": "attraction"
  },
  {
    "id": "fb-tokushima-iya-kazurabashi",
    "name_src": "かずら橋",
    "name_sc": "蔓桥",
    "name_tc": "蔓橋",
    "name_jp": "かずら橋",
    "name_en": "Kazura bridge at the Iya Valley",
    "emoji": "🌉",
    "lat": 33.8750942,
    "lon": 133.8354225,
    "category": "attraction"
  },
  {
    "id": "fb-kochi-katsurahama",
    "name_src": "桂浜",
    "name_sc": "桂滨",
    "name_tc": "桂濱",
    "name_jp": "桂浜",
    "name_en": "Katsurahama",
    "emoji": "🌊",
    "lat": 33.4971075,
    "lon": 133.5744564,
    "category": "attraction"
  },
  {
    "id": "fb-kochi-castle",
    "name_src": "高知城",
    "name_sc": "高知城",
    "name_tc": "高知城",
    "name_jp": "高知城",
    "name_en": "Kōchi Castle",
    "emoji": "🏯",
    "lat": 33.560691,
    "lon": 133.5314588,
    "category": "attraction"
  },
  {
    "id": "fb-kochi-shimanto-river",
    "name_src": "四万十川",
    "name_sc": "四万十川",
    "name_tc": "四萬十川",
    "name_jp": "四万十川",
    "name_en": "Shimanto River",
    "emoji": "🛶",
    "lat": 33.1930362,
    "lon": 132.9695409,
    "category": "attraction"
  },
  {
    "id": "fb-yamaguchi-kintaikyo",
    "name_src": "錦帯橋",
    "name_sc": "锦带桥",
    "name_tc": "錦帶橋",
    "name_jp": "錦帯橋",
    "name_en": "Kintai Bridge",
    "emoji": "🌉",
    "lat": 34.1676435,
    "lon": 132.1783208,
    "category": "attraction"
  },
  {
    "id": "fb-yamaguchi-motonosumi",
    "name_src": "元乃隅神社",
    "name_sc": "元乃隅神社",
    "name_tc": "元乃隅神社",
    "name_jp": "元乃隅神社",
    "name_en": "Motonosumi Shrine",
    "emoji": "⛩️",
    "lat": 34.4200826,
    "lon": 131.0631692,
    "category": "attraction"
  },
  {
    "id": "fb-yamaguchi-tsunoshima",
    "name_src": "角島大橋",
    "name_sc": "角岛大橋",
    "name_tc": "角島大橋",
    "name_jp": "角島大橋",
    "name_en": "Tsunoshima Bridge",
    "emoji": "🌉",
    "lat": 34.3523746,
    "lon": 130.8872191,
    "category": "attraction"
  },
  {
    "id": "fb-yamaguchi-akiyoshido",
    "name_src": "秋芳洞",
    "name_sc": "秋芳洞",
    "name_tc": "秋芳洞",
    "name_jp": "秋芳洞",
    "name_en": "Akiyoshidō",
    "emoji": "🕳️",
    "lat": 34.2280614,
    "lon": 131.3034105,
    "category": "attraction"
  },
  {
    "id": "fb-shimane-izumo-taisha",
    "name_src": "出雲大社",
    "name_sc": "出云大社",
    "name_tc": "出雲大社",
    "name_jp": "出雲大社",
    "name_en": "Izumo Taisha",
    "emoji": "⛩️",
    "lat": 35.399803,
    "lon": 132.6851508,
    "category": "attraction"
  },
  {
    "id": "fb-shimane-matsue-castle",
    "name_src": "松江城",
    "name_sc": "松江城",
    "name_tc": "松江城",
    "name_jp": "松江城",
    "name_en": "Matsue Castle",
    "emoji": "🏯",
    "lat": 35.4751405,
    "lon": 133.0507625,
    "category": "attraction"
  },
  {
    "id": "fb-shimane-adachi-museum",
    "name_src": "足立美術館",
    "name_sc": "足立美术馆",
    "name_tc": "足立美術館",
    "name_jp": "足立美術館",
    "name_en": "Adachi Museum of Art",
    "emoji": "🎨",
    "lat": 35.380843,
    "lon": 133.1954726,
    "category": "attraction"
  },
  {
    "id": "fb-shimane-iwami-ginzan",
    "name_src": "石見銀山",
    "name_sc": "石见银山",
    "name_tc": "石見銀山",
    "name_jp": "石見銀山",
    "name_en": "Iwami Ginzan Silver Mine",
    "emoji": "⛏️",
    "lat": 35.113757,
    "lon": 132.445335,
    "category": "attraction"
  },
  {
    "id": "fb-tottori-sand-dunes",
    "name_src": "鳥取砂丘",
    "name_sc": "鸟取砂丘",
    "name_tc": "鳥取砂丘",
    "name_jp": "鳥取砂丘",
    "name_en": "Tottori Sand Dunes",
    "emoji": "🏜️",
    "lat": 35.5412997,
    "lon": 134.2277259,
    "category": "attraction"
  },
  {
    "id": "fb-tottori-mizuki-shigeru-road",
    "name_src": "水木しげるロード",
    "name_sc": "水木茂路",
    "name_tc": "水木茂路",
    "name_jp": "水木しげるロード",
    "name_en": "Mizuki Shigeru Road",
    "emoji": "👻",
    "lat": 35.5457208,
    "lon": 133.2258081,
    "category": "attraction"
  },
  {
    "id": "fb-tottori-misasa-onsen",
    "name_src": "三朝温泉",
    "name_sc": "三朝温泉",
    "name_tc": "三朝溫泉",
    "name_jp": "三朝温泉",
    "name_en": "Misasa Onsen",
    "emoji": "♨️",
    "lat": 35.4120062,
    "lon": 133.8904389,
    "category": "attraction"
  },
  {
    "id": "fb-okayama-korakuen",
    "name_src": "後楽園",
    "name_sc": "后乐园",
    "name_tc": "後樂園",
    "name_jp": "後楽園",
    "name_en": "Kōraku-en",
    "emoji": "🌳",
    "lat": 34.66633,
    "lon": 133.9373948,
    "category": "attraction"
  },
  {
    "id": "fb-okayama-castle",
    "name_src": "岡山城",
    "name_sc": "冈山城",
    "name_tc": "岡山城",
    "name_jp": "岡山城",
    "name_en": "Okayama Castle",
    "emoji": "🏯",
    "lat": 34.6651763,
    "lon": 133.9360446,
    "category": "attraction"
  },
  {
    "id": "fb-okayama-kurashiki-bikan",
    "name_src": "倉敷美観地区",
    "name_sc": "仓敷美观地区",
    "name_tc": "倉敷美觀地區",
    "name_jp": "倉敷美観地区",
    "name_en": "Kurashiki Bikan Historical Quarter",
    "emoji": "🏘️",
    "lat": 34.596525,
    "lon": 133.7725863,
    "category": "attraction"
  },
  {
    "id": "fb-okayama-kinojo",
    "name_src": "鬼ノ城",
    "name_sc": "鬼之城",
    "name_tc": "鬼之城",
    "name_jp": "鬼ノ城",
    "name_en": "Ki Castle",
    "emoji": "🏯",
    "lat": 34.7275739,
    "lon": 133.7678973,
    "category": "attraction"
  },
  {
    "id": "fb-ibaraki-hitachi-seaside",
    "name_src": "国営ひたち海浜公園",
    "name_sc": "国营常陆海滨公园",
    "name_tc": "國營常陸海濱公園",
    "name_jp": "国営ひたち海浜公園",
    "name_en": "Hitachi Seaside Park",
    "emoji": "🌸",
    "lat": 36.4025276,
    "lon": 140.5943473,
    "category": "attraction"
  },
  {
    "id": "fb-ibaraki-kairakuen",
    "name_src": "偕楽園",
    "name_sc": "偕乐园",
    "name_tc": "偕樂園",
    "name_jp": "偕楽園",
    "name_en": "Kairaku-en",
    "emoji": "🌸",
    "lat": 36.375135,
    "lon": 140.453545,
    "category": "attraction"
  },
  {
    "id": "fb-ibaraki-ushiku-daibutsu",
    "name_src": "牛久大仏",
    "name_sc": "牛久大佛",
    "name_tc": "牛久大佛",
    "name_jp": "牛久大仏",
    "name_en": "Ushiku Daibutsu",
    "emoji": "🧘",
    "lat": 35.9826452,
    "lon": 140.2202483,
    "category": "attraction"
  },
  {
    "id": "fb-ibaraki-fukuroda-falls",
    "name_src": "袋田の滝",
    "name_sc": "袋田瀑布",
    "name_tc": "袋田瀑布",
    "name_jp": "袋田の滝",
    "name_en": "Fukuroda Falls",
    "emoji": "💦",
    "lat": 36.764617,
    "lon": 140.4072509,
    "category": "attraction"
  },
  {
    "id": "fb-saitama-kawagoe-koedo",
    "name_src": "川越市",
    "name_sc": "川越市",
    "name_tc": "川越市",
    "name_jp": "川越市",
    "name_en": "Kawagoe",
    "emoji": "🏘️",
    "lat": 35.9251145,
    "lon": 139.4856927,
    "category": "attraction"
  },
  {
    "id": "fb-saitama-chichibu-nagatoro",
    "name_src": "長瀞町",
    "name_sc": "长瀞町",
    "name_tc": "長瀞町",
    "name_jp": "長瀞町",
    "name_en": "Nagatoro",
    "emoji": "🛶",
    "lat": 36.1146759,
    "lon": 139.1096479,
    "category": "attraction"
  },
  {
    "id": "fb-saitama-railway-museum",
    "name_src": "鉄道博物館",
    "name_sc": "机车博物馆",
    "name_tc": "機車博物館",
    "name_jp": "鉄道博物館",
    "name_en": "list of railway museums",
    "emoji": "🚂",
    "lat": 35.9217287,
    "lon": 139.617861,
    "category": "attraction"
  },
  {
    "id": "fb-chiba-tokyo-disneyland",
    "name_src": "東京ディズニーランド",
    "name_sc": "东京迪士尼乐园",
    "name_tc": "東京迪士尼樂園",
    "name_jp": "東京ディズニーランド",
    "name_en": "Tokyo Disneyland",
    "emoji": "🏰",
    "lat": 35.6326586,
    "lon": 139.8814172,
    "category": "attraction"
  },
  {
    "id": "fb-chiba-naritasan",
    "name_src": "成田山新勝寺",
    "name_sc": "成田山新胜寺",
    "name_tc": "成田山新勝寺",
    "name_jp": "成田山新勝寺",
    "name_en": "Narita-san",
    "emoji": "⛩️",
    "lat": 35.7863311,
    "lon": 140.3172238,
    "category": "attraction"
  },
  {
    "id": "fb-chiba-kamogawa-sea-world",
    "name_src": "鴨川シーワールド",
    "name_sc": "鸭川海洋世界",
    "name_tc": "鴨川海洋世界",
    "name_jp": "鴨川シーワールド",
    "name_en": "Kamogawa Sea World",
    "emoji": "🐋",
    "lat": 35.1152464,
    "lon": 140.1190315,
    "category": "attraction"
  },
  {
    "id": "fb-chiba-yoro-keikoku",
    "name_src": "養老渓谷",
    "name_sc": "养老溪谷",
    "name_tc": "養老溪谷",
    "name_jp": "養老渓谷",
    "name_en": "Yōrō Gorge",
    "emoji": "🍁",
    "lat": 35.2664357,
    "lon": 140.1596044,
    "category": "attraction"
  },
  {
    "id": "fb-chiba-narita-airport",
    "name_src": "成田空港",
    "name_sc": "成田国际机场",
    "name_tc": "成田國際機場",
    "name_jp": "成田空港",
    "name_en": "Narita International Airport",
    "emoji": "✈️",
    "lat": 35.7758714,
    "lon": 140.3933101,
    "category": "attraction"
  },
  {
    "id": "fb-kumamoto-castle",
    "name_src": "熊本城",
    "name_sc": "熊本城",
    "name_tc": "熊本城",
    "name_jp": "熊本城",
    "name_en": "Kumamoto Castle",
    "emoji": "🏯",
    "lat": 32.8052691,
    "lon": 130.7054642,
    "category": "attraction"
  },
  {
    "id": "fb-kumamoto-asosan",
    "name_src": "阿蘇山",
    "name_sc": "阿苏山",
    "name_tc": "阿蘇山",
    "name_jp": "阿蘇山",
    "name_en": "Mount Aso",
    "emoji": "🌋",
    "lat": 32.8827019,
    "lon": 131.0947404,
    "category": "attraction"
  },
  {
    "id": "fb-kumamoto-kurokawa-onsen",
    "name_src": "黒川温泉",
    "name_sc": "黑川温泉",
    "name_tc": "黑川溫泉",
    "name_jp": "黒川温泉",
    "name_en": "Kurokawa Onsen",
    "emoji": "♨️",
    "lat": 33.0777131,
    "lon": 131.1419381,
    "category": "attraction"
  },
  {
    "id": "fb-kumamoto-kusasenri",
    "name_src": "草千里",
    "name_jp": "草千里",
    "name_en": "Kusa-Senrigahama",
    "emoji": "🐄",
    "lat": 32.8849693,
    "lon": 131.0503018,
    "category": "attraction"
  },
  {
    "id": "fb-oita-yufuin-onsen",
    "name_src": "由布院温泉",
    "name_sc": "由布院温泉",
    "name_tc": "由布院溫泉",
    "name_jp": "由布院温泉",
    "name_en": "Yufuin Onsen",
    "emoji": "♨️",
    "lat": 33.1952429,
    "lon": 131.3278492,
    "category": "attraction"
  },
  {
    "id": "fb-oita-kokonoe-yume-bridge",
    "name_src": "九重夢大吊橋",
    "name_sc": "九重\"梦\"大吊桥",
    "name_tc": "九重\"夢\"大吊橋",
    "name_jp": "九重夢大吊橋",
    "name_en": "Kokonoe Yume Suspension Bridge",
    "emoji": "🌉",
    "lat": 33.174177,
    "lon": 131.227066,
    "category": "attraction"
  },
  {
    "id": "fb-kagoshima-sakurajima",
    "name_src": "桜島",
    "name_sc": "樱岛",
    "name_tc": "櫻島",
    "name_jp": "桜島",
    "name_en": "Sakurajima",
    "emoji": "🌋",
    "lat": 31.5805744,
    "lon": 130.657984,
    "category": "attraction"
  },
  {
    "id": "fb-kagoshima-sengan-en",
    "name_src": "仙巌園",
    "name_sc": "仙岩园",
    "name_tc": "仙岩園",
    "name_jp": "仙巌園",
    "name_en": "Sengan-en",
    "emoji": "🌳",
    "lat": 31.6166224,
    "lon": 130.5766252,
    "category": "attraction"
  },
  {
    "id": "fb-kagoshima-yakushima",
    "name_src": "屋久島",
    "name_sc": "屋久岛",
    "name_tc": "屋久島",
    "name_jp": "屋久島",
    "name_en": "Yakushima",
    "emoji": "🌲",
    "lat": 30.347925,
    "lon": 130.5244832,
    "category": "attraction"
  },
  {
    "id": "fb-kagoshima-ibusuki-onsen",
    "name_src": "指宿温泉",
    "name_sc": "指宿温泉",
    "name_tc": "指宿溫泉",
    "name_jp": "指宿温泉",
    "name_en": "Ibusuki Onsen",
    "emoji": "♨️",
    "lat": 31.2564209,
    "lon": 130.6259655,
    "category": "attraction"
  },
  {
    "id": "fb-miyazaki-takachiho-gorge",
    "name_src": "高千穂峡",
    "name_sc": "高千穂峡",
    "name_tc": "高千穂峽",
    "name_jp": "高千穂峡",
    "name_en": "Takachihokyo",
    "emoji": "💦",
    "lat": 32.7017851,
    "lon": 131.300939,
    "category": "attraction"
  },
  {
    "id": "fb-miyazaki-aoshima",
    "name_src": "青島神社",
    "name_sc": "青岛神社",
    "name_tc": "青島神社",
    "name_jp": "青島神社",
    "name_en": "Aoshima Shrine",
    "emoji": "🌊",
    "lat": 31.8044125,
    "lon": 131.4750916,
    "category": "attraction"
  },
  {
    "id": "fb-miyazaki-udo-jingu",
    "name_src": "鵜戸神宮",
    "name_sc": "鹈户神宫",
    "name_tc": "鵜戶神宮",
    "name_jp": "鵜戸神宮",
    "name_en": "Udo Jingū",
    "emoji": "⛩️",
    "lat": 31.649165,
    "lon": 131.4661169,
    "category": "attraction"
  },
  {
    "id": "fb-saga-yoshinogari",
    "name_src": "吉野ヶ里歴史公園",
    "name_sc": "吉野里遗址",
    "name_tc": "吉野裏遺址",
    "name_jp": "吉野ヶ里歴史公園",
    "name_en": "Yoshinogari site",
    "emoji": "🏛️",
    "lat": 33.3270916,
    "lon": 130.3842637,
    "category": "attraction"
  },
  {
    "id": "fb-saga-karatsu-castle",
    "name_src": "唐津城",
    "name_sc": "唐津城",
    "name_tc": "唐津城",
    "name_jp": "唐津城",
    "name_en": "Karatsu Castle",
    "emoji": "🏯",
    "lat": 33.4535132,
    "lon": 129.9781934,
    "category": "attraction"
  },
  {
    "id": "fb-saga-takeo-onsen",
    "name_src": "武雄温泉",
    "name_sc": "武雄温泉",
    "name_tc": "武雄溫泉",
    "name_jp": "武雄温泉",
    "name_en": "Takeo Onsen",
    "emoji": "♨️",
    "lat": 33.1964703,
    "lon": 130.0230043,
    "category": "attraction"
  },
  {
    "id": "fb-saga-arita-ceramics",
    "name_src": "有田町",
    "name_sc": "有田町",
    "name_tc": "有田町",
    "name_jp": "有田町",
    "name_en": "Arita",
    "emoji": "🍶",
    "lat": 33.192301,
    "lon": 129.8669613,
    "category": "attraction"
  }
]